# Synthetic NMEA route for gpsfake
# Route: approximate Romeo, MI area -> approximate Warren/GVSC area -> return
# Privacy-safe: not exact home/work coordinates
# Sentence types: GPRMC + GPGGA
# Sample interval: 10 seconds
# Approx total route distance: 41.3 miles
#
$GPRMC,120000.00,A,4248.1694,N,08300.7247,W,0.0,0.0,030526,,,A*40
$GPGGA,120000.00,4248.1694,N,08300.7247,W,1,08,1.1,187.6,M,-34.0,M,,*5A
$GPRMC,120010.00,A,4248.0659,N,08300.7561,W,38.2,192.5,030526,,,A*74
$GPGGA,120010.00,4248.0659,N,08300.7561,W,1,09,0.9,187.2,M,-34.0,M,,*54
$GPRMC,120020.00,A,4247.9566,N,08300.7843,W,40.1,190.7,030526,,,A*7F
$GPGGA,120020.00,4247.9566,N,08300.7843,W,1,11,0.7,194.7,M,-34.0,M,,*53
$GPRMC,120030.00,A,4247.8558,N,08300.8185,W,37.4,194.0,030526,,,A*78
$GPGGA,120030.00,4247.8558,N,08300.8185,W,1,12,1.0,194.9,M,-34.0,M,,*59
$GPRMC,120040.00,A,4247.7527,N,08300.8454,W,37.8,190.9,030526,,,A*70
$GPGGA,120040.00,4247.7527,N,08300.8454,W,1,09,0.9,192.3,M,-34.0,M,,*5E
$GPRMC,120050.00,A,4247.6494,N,08300.8837,W,38.6,195.2,030526,,,A*7F
$GPGGA,120050.00,4247.6494,N,08300.8837,W,1,08,1.0,202.8,M,-34.0,M,,*56
$GPRMC,120100.00,A,4247.5373,N,08300.9156,W,41.3,191.8,030526,,,A*7C
$GPGGA,120100.00,4247.5373,N,08300.9156,W,1,08,1.3,204.6,M,-34.0,M,,*5B
$GPRMC,120110.00,A,4247.4339,N,08300.9415,W,37.9,190.4,030526,,,A*76
$GPGGA,120110.00,4247.4339,N,08300.9415,W,1,12,0.9,202.6,M,-34.0,M,,*51
$GPRMC,120120.00,A,4247.3324,N,08300.9714,W,37.4,192.2,030526,,,A*75
$GPGGA,120120.00,4247.3324,N,08300.9714,W,1,08,0.9,197.3,M,-34.0,M,,*5A
$GPRMC,120130.00,A,4247.2239,N,08301.0095,W,40.4,194.4,030526,,,A*7E
$GPGGA,120130.00,4247.2239,N,08301.0095,W,1,09,0.9,185.1,M,-34.0,M,,*51
$GPRMC,120140.00,A,4247.1210,N,08301.0408,W,38.0,192.6,030526,,,A*7E
$GPGGA,120140.00,4247.1210,N,08301.0408,W,1,08,1.3,204.7,M,-34.0,M,,*58
$GPRMC,120150.00,A,4247.0158,N,08301.0691,W,38.6,191.2,030526,,,A*72
$GPGGA,120150.00,4247.0158,N,08301.0691,W,1,10,0.8,192.0,M,-34.0,M,,*5D
$GPRMC,120200.00,A,4246.9187,N,08301.0995,W,35.9,192.9,030526,,,A*7F
$GPGGA,120200.00,4246.9187,N,08301.0995,W,1,12,1.3,198.6,M,-34.0,M,,*5E
$GPRMC,120210.00,A,4246.8144,N,08301.1388,W,39.0,195.5,030526,,,A*79
$GPGGA,120210.00,4246.8144,N,08301.1388,W,1,10,0.8,203.8,M,-34.0,M,,*51
$GPRMC,120220.00,A,4246.7020,N,08301.1670,W,41.2,190.4,030526,,,A*7D
$GPGGA,120220.00,4246.7020,N,08301.1670,W,1,10,0.9,197.5,M,-34.0,M,,*5E
$GPRMC,120230.00,A,4246.5990,N,08301.1977,W,38.0,192.3,030526,,,A*7D
$GPGGA,120230.00,4246.5990,N,08301.1977,W,1,08,1.2,194.4,M,-34.0,M,,*56
$GPRMC,120240.00,A,4246.4953,N,08301.2305,W,38.3,193.1,030526,,,A*78
$GPGGA,120240.00,4246.4953,N,08301.2305,W,1,08,1.0,204.5,M,-34.0,M,,*5A
$GPRMC,120250.00,A,4246.3938,N,08301.2623,W,37.5,192.9,030526,,,A*72
$GPGGA,120250.00,4246.3938,N,08301.2623,W,1,10,1.4,187.0,M,-34.0,M,,*50
$GPRMC,120300.00,A,4246.2888,N,08301.2953,W,38.8,193.0,030526,,,A*7F
$GPGGA,120300.00,4246.2888,N,08301.2953,W,1,12,0.8,188.9,M,-34.0,M,,*5E
$GPRMC,120310.00,A,4246.1870,N,08301.3320,W,38.0,194.8,030526,,,A*72
$GPGGA,120310.00,4246.1870,N,08301.3320,W,1,12,1.3,189.0,M,-34.0,M,,*56
$GPRMC,120320.00,A,4246.0844,N,08301.3641,W,37.9,193.0,030526,,,A*7C
$GPGGA,120320.00,4246.0844,N,08301.3641,W,1,10,0.7,194.2,M,-34.0,M,,*58
$GPRMC,120330.00,A,4245.9758,N,08301.3881,W,39.6,189.2,030526,,,A*7F
$GPGGA,120330.00,4245.9758,N,08301.3881,W,1,09,0.9,194.8,M,-34.0,M,,*5F
$GPRMC,120340.00,A,4245.8733,N,08301.4274,W,38.3,195.7,030526,,,A*7F
$GPGGA,120340.00,4245.8733,N,08301.4274,W,1,09,1.3,196.8,M,-34.0,M,,*5A
$GPRMC,120350.00,A,4245.7633,N,08301.4584,W,40.5,191.7,030526,,,A*75
$GPGGA,120350.00,4245.7633,N,08301.4584,W,1,10,0.9,195.9,M,-34.0,M,,*5C
$GPRMC,120400.00,A,4245.6581,N,08301.4898,W,38.8,192.3,030526,,,A*79
$GPGGA,120400.00,4245.6581,N,08301.4898,W,1,10,1.1,185.9,M,-34.0,M,,*5D
$GPRMC,120410.00,A,4245.5549,N,08301.5176,W,37.9,191.2,030526,,,A*7B
$GPGGA,120410.00,4245.5549,N,08301.5176,W,1,12,0.7,201.4,M,-34.0,M,,*54
$GPRMC,120420.00,A,4245.4552,N,08301.5497,W,36.9,193.3,030526,,,A*7B
$GPGGA,120420.00,4245.4552,N,08301.5497,W,1,09,0.7,197.8,M,-34.0,M,,*5C
$GPRMC,120430.00,A,4245.3487,N,08301.5830,W,39.4,192.9,030526,,,A*7C
$GPGGA,120430.00,4245.3487,N,08301.5830,W,1,09,0.8,186.2,M,-34.0,M,,*57
$GPRMC,120440.00,A,4245.2434,N,08301.6182,W,39.0,193.8,030526,,,A*75
$GPGGA,120440.00,4245.2434,N,08301.6182,W,1,10,1.1,187.6,M,-34.0,M,,*5F
$GPRMC,120450.00,A,4245.1416,N,08301.6480,W,37.5,192.2,030526,,,A*70
$GPGGA,120450.00,4245.1416,N,08301.6480,W,1,11,0.9,187.7,M,-34.0,M,,*53
$GPRMC,120500.00,A,4245.0363,N,08301.6831,W,39.1,193.7,030526,,,A*78
$GPGGA,120500.00,4245.0363,N,08301.6831,W,1,09,1.3,189.4,M,-34.0,M,,*5A
$GPRMC,120510.00,A,4244.9315,N,08301.7163,W,38.8,193.1,030526,,,A*71
$GPGGA,120510.00,4244.9315,N,08301.7163,W,1,08,1.4,202.7,M,-34.0,M,,*58
$GPRMC,120520.00,A,4244.8244,N,08301.7422,W,39.2,190.1,030526,,,A*7E
$GPGGA,120520.00,4244.8244,N,08301.7422,W,1,12,1.3,199.5,M,-34.0,M,,*50
$GPRMC,120530.00,A,4244.7215,N,08301.7736,W,38.0,192.6,030526,,,A*74
$GPGGA,120530.00,4244.7215,N,08301.7736,W,1,10,1.0,190.6,M,-34.0,M,,*57
$GPRMC,120540.00,A,4244.6227,N,08301.8112,W,37.0,195.6,030526,,,A*74
$GPGGA,120540.00,4244.6227,N,08301.8112,W,1,10,1.2,200.3,M,-34.0,M,,*52
$GPRMC,120550.00,A,4244.5169,N,08301.8431,W,39.0,192.5,030526,,,A*71
$GPGGA,120550.00,4244.5169,N,08301.8431,W,1,10,1.4,194.6,M,-34.0,M,,*50
$GPRMC,120600.00,A,4244.4095,N,08301.8754,W,39.6,192.5,030526,,,A*72
$GPGGA,120600.00,4244.4095,N,08301.8754,W,1,11,0.9,186.0,M,-34.0,M,,*5D
$GPRMC,120610.00,A,4244.3067,N,08301.9063,W,37.9,192.4,030526,,,A*7B
$GPGGA,120610.00,4244.3067,N,08301.9063,W,1,10,1.0,194.2,M,-34.0,M,,*5C
$GPRMC,120620.00,A,4244.1983,N,08301.9364,W,39.9,191.5,030526,,,A*71
$GPGGA,120620.00,4244.1983,N,08301.9364,W,1,10,1.3,196.7,M,-34.0,M,,*5E
$GPRMC,120630.00,A,4244.0920,N,08301.9669,W,39.1,191.9,030526,,,A*74
$GPGGA,120630.00,4244.0920,N,08301.9669,W,1,11,0.8,195.2,M,-34.0,M,,*52
$GPRMC,120640.00,A,4243.9931,N,08301.9982,W,36.6,193.1,030526,,,A*75
$GPGGA,120640.00,4243.9931,N,08301.9982,W,1,11,1.2,198.8,M,-34.0,M,,*5D
$GPRMC,120650.00,A,4243.8854,N,08302.0320,W,39.8,193.0,030526,,,A*7F
$GPGGA,120650.00,4243.8854,N,08302.0320,W,1,10,0.9,195.9,M,-34.0,M,,*50
$GPRMC,120700.00,A,4243.7867,N,08302.0657,W,36.7,194.1,030526,,,A*77
$GPGGA,120700.00,4243.7867,N,08302.0657,W,1,10,0.8,203.6,M,-34.0,M,,*5C
$GPRMC,120710.00,A,4243.6835,N,08302.0936,W,37.9,191.2,030526,,,A*71
$GPGGA,120710.00,4243.6835,N,08302.0936,W,1,12,1.1,197.3,M,-34.0,M,,*52
$GPRMC,120720.00,A,4243.5733,N,08302.1318,W,41.0,194.3,030526,,,A*73
$GPGGA,120720.00,4243.5733,N,08302.1318,W,1,11,1.1,188.9,M,-34.0,M,,*5B
$GPRMC,120730.00,A,4243.4687,N,08302.1599,W,38.4,191.2,030526,,,A*7C
$GPGGA,120730.00,4243.4687,N,08302.1599,W,1,08,1.2,203.3,M,-34.0,M,,*5B
$GPRMC,120740.00,A,4243.3792,N,08302.1523,W,32.3,176.4,030526,,,A*7A
$GPGGA,120740.00,4243.3792,N,08302.1523,W,1,08,1.2,196.3,M,-34.0,M,,*50
$GPRMC,120750.00,A,4243.2892,N,08302.1392,W,32.6,173.9,030526,,,A*74
$GPGGA,120750.00,4243.2892,N,08302.1392,W,1,10,0.7,185.4,M,-34.0,M,,*5B
$GPRMC,120800.00,A,4243.1880,N,08302.1275,W,36.6,175.2,030526,,,A*7F
$GPGGA,120800.00,4243.1880,N,08302.1275,W,1,08,1.3,204.2,M,-34.0,M,,*59
$GPRMC,120810.00,A,4243.1028,N,08302.1236,W,30.7,178.1,030526,,,A*7A
$GPGGA,120810.00,4243.1028,N,08302.1236,W,1,12,0.9,203.8,M,-34.0,M,,*58
$GPRMC,120820.00,A,4243.0034,N,08302.1067,W,36.1,172.9,030526,,,A*71
$GPGGA,120820.00,4243.0034,N,08302.1067,W,1,10,1.2,198.4,M,-34.0,M,,*54
$GPRMC,120830.00,A,4242.9163,N,08302.1024,W,31.4,177.9,030526,,,A*7B
$GPGGA,120830.00,4242.9163,N,08302.1024,W,1,11,1.2,185.3,M,-34.0,M,,*53
$GPRMC,120840.00,A,4242.8268,N,08302.0891,W,32.5,173.8,030526,,,A*75
$GPGGA,120840.00,4242.8268,N,08302.0891,W,1,09,0.9,191.2,M,-34.0,M,,*5D
$GPRMC,120850.00,A,4242.7311,N,08302.0798,W,34.5,175.9,030526,,,A*73
$GPGGA,120850.00,4242.7311,N,08302.0798,W,1,11,1.0,186.9,M,-34.0,M,,*56
$GPRMC,120900.00,A,4242.6337,N,08302.0655,W,35.3,173.8,030526,,,A*72
$GPGGA,120900.00,4242.6337,N,08302.0655,W,1,10,0.9,190.3,M,-34.0,M,,*53
$GPRMC,120910.00,A,4242.5440,N,08302.0613,W,32.4,178.1,030526,,,A*77
$GPGGA,120910.00,4242.5440,N,08302.0613,W,1,09,0.9,190.4,M,-34.0,M,,*5B
$GPRMC,120920.00,A,4242.4499,N,08302.0454,W,34.2,172.9,030526,,,A*72
$GPGGA,120920.00,4242.4499,N,08302.0454,W,1,09,1.1,192.2,M,-34.0,M,,*51
$GPRMC,120930.00,A,4242.3584,N,08302.0395,W,33.0,177.3,030526,,,A*79
$GPGGA,120930.00,4242.3584,N,08302.0395,W,1,08,0.9,187.2,M,-34.0,M,,*5C
$GPRMC,120940.00,A,4242.2685,N,08302.0303,W,32.5,175.7,030526,,,A*70
$GPGGA,120940.00,4242.2685,N,08302.0303,W,1,11,0.7,193.6,M,-34.0,M,,*50
$GPRMC,120950.00,A,4242.1759,N,08302.0188,W,33.5,174.8,030526,,,A*7C
$GPGGA,120950.00,4242.1759,N,08302.0188,W,1,12,0.9,195.6,M,-34.0,M,,*58
$GPRMC,121000.00,A,4242.0831,N,08302.0013,W,33.7,172.1,030526,,,A*7F
$GPGGA,121000.00,4242.0831,N,08302.0013,W,1,09,0.8,198.1,M,-34.0,M,,*57
$GPRMC,121010.00,A,4241.9893,N,08301.9968,W,33.8,178.0,030526,,,A*77
$GPGGA,121010.00,4241.9893,N,08301.9968,W,1,08,1.2,197.2,M,-34.0,M,,*5D
$GPRMC,121020.00,A,4241.8933,N,08301.9805,W,34.9,172.9,030526,,,A*71
$GPGGA,121020.00,4241.8933,N,08301.9805,W,1,10,0.8,204.3,M,-34.0,M,,*54
$GPRMC,121030.00,A,4241.8018,N,08301.9757,W,33.0,177.8,030526,,,A*72
$GPGGA,121030.00,4241.8018,N,08301.9757,W,1,12,1.2,187.0,M,-34.0,M,,*5F
$GPRMC,121040.00,A,4241.7148,N,08301.9621,W,31.5,173.5,030526,,,A*70
$GPGGA,121040.00,4241.7148,N,08301.9621,W,1,12,1.4,185.1,M,-34.0,M,,*56
$GPRMC,121050.00,A,4241.6140,N,08301.9582,W,36.4,178.4,030526,,,A*7E
$GPGGA,121050.00,4241.6140,N,08301.9582,W,1,09,0.7,189.7,M,-34.0,M,,*56
$GPRMC,121100.00,A,4241.5296,N,08301.9416,W,30.7,171.8,030526,,,A*7D
$GPGGA,121100.00,4241.5296,N,08301.9416,W,1,11,1.0,188.8,M,-34.0,M,,*54
$GPRMC,121110.00,A,4241.4304,N,08301.9325,W,35.8,176.1,030526,,,A*74
$GPGGA,121110.00,4241.4304,N,08301.9325,W,1,10,1.0,193.6,M,-34.0,M,,*5C
$GPRMC,121120.00,A,4241.3397,N,08301.9257,W,32.7,176.9,030526,,,A*7E
$GPGGA,121120.00,4241.3397,N,08301.9257,W,1,11,0.8,189.2,M,-34.0,M,,*51
$GPRMC,121130.00,A,4241.2441,N,08301.9098,W,34.7,173.0,030526,,,A*79
$GPGGA,121130.00,4241.2441,N,08301.9098,W,1,10,0.8,199.7,M,-34.0,M,,*59
$GPRMC,121140.00,A,4241.1570,N,08301.9012,W,31.5,175.8,030526,,,A*75
$GPGGA,121140.00,4241.1570,N,08301.9012,W,1,10,1.1,199.5,M,-34.0,M,,*56
$GPRMC,121150.00,A,4241.0652,N,08301.8912,W,33.2,175.4,030526,,,A*77
$GPGGA,121150.00,4241.0652,N,08301.8912,W,1,12,1.4,203.1,M,-34.0,M,,*5E
$GPRMC,121200.00,A,4240.9704,N,08301.8809,W,34.3,175.4,030526,,,A*76
$GPGGA,121200.00,4240.9704,N,08301.8809,W,1,08,0.8,190.8,M,-34.0,M,,*5F
$GPRMC,121210.00,A,4240.8819,N,08301.8685,W,32.0,174.1,030526,,,A*7E
$GPGGA,121210.00,4240.8819,N,08301.8685,W,1,08,1.4,195.8,M,-34.0,M,,*5E
$GPRMC,121220.00,A,4240.7882,N,08301.8609,W,33.8,176.6,030526,,,A*78
$GPGGA,121220.00,4240.7882,N,08301.8609,W,1,12,0.8,201.6,M,-34.0,M,,*52
$GPRMC,121230.00,A,4240.6922,N,08301.8489,W,34.7,174.8,030526,,,A*7D
$GPGGA,121230.00,4240.6922,N,08301.8489,W,1,11,1.1,198.4,M,-34.0,M,,*59
$GPRMC,121240.00,A,4240.6028,N,08301.8439,W,32.2,177.6,030526,,,A*7C
$GPGGA,121240.00,4240.6028,N,08301.8439,W,1,12,0.9,199.6,M,-34.0,M,,*5F
$GPRMC,121250.00,A,4240.5049,N,08301.8290,W,35.5,173.6,030526,,,A*78
$GPGGA,121250.00,4240.5049,N,08301.8290,W,1,08,1.4,188.1,M,-34.0,M,,*5F
$GPRMC,121300.00,A,4240.4176,N,08301.8188,W,31.6,175.1,030526,,,A*7C
$GPGGA,121300.00,4240.4176,N,08301.8188,W,1,11,0.8,187.3,M,-34.0,M,,*55
$GPRMC,121310.00,A,4240.3203,N,08301.8081,W,35.2,175.4,030526,,,A*76
$GPGGA,121310.00,4240.3203,N,08301.8081,W,1,09,1.3,204.7,M,-34.0,M,,*55
$GPRMC,121320.00,A,4240.2285,N,08301.7969,W,33.2,174.9,030526,,,A*70
$GPGGA,121320.00,4240.2285,N,08301.7969,W,1,09,1.1,190.5,M,-34.0,M,,*57
$GPRMC,121330.00,A,4240.1227,N,08301.7991,W,38.1,180.9,030526,,,A*7E
$GPGGA,121330.00,4240.1227,N,08301.7991,W,1,12,0.8,190.8,M,-34.0,M,,*55
$GPRMC,121340.00,A,4240.0115,N,08301.8018,W,40.1,181.0,030526,,,A*7A
$GPGGA,121340.00,4240.0115,N,08301.8018,W,1,08,1.1,196.2,M,-34.0,M,,*59
$GPRMC,121350.00,A,4239.9029,N,08301.8008,W,39.1,179.6,030526,,,A*7C
$GPGGA,121350.00,4239.9029,N,08301.8008,W,1,11,1.3,194.0,M,-34.0,M,,*5A
$GPRMC,121400.00,A,4239.8016,N,08301.7972,W,36.5,178.5,030526,,,A*71
$GPGGA,121400.00,4239.8016,N,08301.7972,W,1,12,1.4,185.6,M,-34.0,M,,*5C
$GPRMC,121410.00,A,4239.6843,N,08301.8056,W,42.3,183.0,030526,,,A*72
$GPGGA,121410.00,4239.6843,N,08301.8056,W,1,10,1.2,198.8,M,-34.0,M,,*5D
$GPRMC,121420.00,A,4239.5794,N,08301.7976,W,37.8,176.8,030526,,,A*78
$GPGGA,121420.00,4239.5794,N,08301.7976,W,1,12,0.7,185.8,M,-34.0,M,,*56
$GPRMC,121430.00,A,4239.4751,N,08301.8057,W,37.6,183.3,030526,,,A*7B
$GPGGA,121430.00,4239.4751,N,08301.8057,W,1,11,1.1,194.5,M,-34.0,M,,*53
$GPRMC,121440.00,A,4239.3614,N,08301.8030,W,41.0,179.0,030526,,,A*7B
$GPGGA,121440.00,4239.3614,N,08301.8030,W,1,08,1.2,196.9,M,-34.0,M,,*57
$GPRMC,121450.00,A,4239.2605,N,08301.8064,W,36.4,181.4,030526,,,A*7D
$GPGGA,121450.00,4239.2605,N,08301.8064,W,1,09,1.3,196.8,M,-34.0,M,,*57
$GPRMC,121500.00,A,4239.1446,N,08301.8053,W,41.7,179.6,030526,,,A*7D
$GPGGA,121500.00,4239.1446,N,08301.8053,W,1,12,1.1,201.4,M,-34.0,M,,*58
$GPRMC,121510.00,A,4239.0370,N,08301.8000,W,38.8,177.9,030526,,,A*79
$GPGGA,121510.00,4239.0370,N,08301.8000,W,1,08,0.8,186.2,M,-34.0,M,,*55
$GPRMC,121520.00,A,4238.9295,N,08301.8002,W,38.7,180.1,030526,,,A*75
$GPGGA,121520.00,4238.9295,N,08301.8002,W,1,11,1.1,191.3,M,-34.0,M,,*51
$GPRMC,121530.00,A,4238.8265,N,08301.8039,W,37.1,181.5,030526,,,A*7E
$GPGGA,121530.00,4238.8265,N,08301.8039,W,1,09,1.1,194.8,M,-34.0,M,,*51
$GPRMC,121540.00,A,4238.7129,N,08301.8007,W,40.9,178.8,030526,,,A*73
$GPGGA,121540.00,4238.7129,N,08301.8007,W,1,09,0.9,194.4,M,-34.0,M,,*5A
$GPRMC,121550.00,A,4238.6057,N,08301.8038,W,38.6,181.2,030526,,,A*7B
$GPGGA,121550.00,4238.6057,N,08301.8038,W,1,08,1.0,202.4,M,-34.0,M,,*5B
$GPRMC,121600.00,A,4238.5020,N,08301.8048,W,37.4,180.4,030526,,,A*73
$GPGGA,121600.00,4238.5020,N,08301.8048,W,1,09,1.2,191.7,M,-34.0,M,,*50
$GPRMC,121610.00,A,4238.3915,N,08301.8015,W,39.8,178.8,030526,,,A*7A
$GPGGA,121610.00,4238.3915,N,08301.8015,W,1,09,1.0,190.5,M,-34.0,M,,*51
$GPRMC,121620.00,A,4238.2810,N,08301.8087,W,39.8,182.7,030526,,,A*7D
$GPGGA,121620.00,4238.2810,N,08301.8087,W,1,09,1.2,202.2,M,-34.0,M,,*51
$GPRMC,121630.00,A,4238.1688,N,08301.8067,W,40.4,179.3,030526,,,A*7C
$GPGGA,121630.00,4238.1688,N,08301.8067,W,1,11,1.3,198.1,M,-34.0,M,,*59
$GPRMC,121640.00,A,4238.0628,N,08301.8022,W,38.2,178.2,030526,,,A*78
$GPGGA,121640.00,4238.0628,N,08301.8022,W,1,10,1.4,195.1,M,-34.0,M,,*5F
$GPRMC,121650.00,A,4237.9532,N,08301.8033,W,39.5,180.4,030526,,,A*70
$GPGGA,121650.00,4237.9532,N,08301.8033,W,1,09,1.2,202.2,M,-34.0,M,,*50
$GPRMC,121700.00,A,4237.8442,N,08301.8047,W,39.3,180.5,030526,,,A*77
$GPGGA,121700.00,4237.8442,N,08301.8047,W,1,10,1.3,196.4,M,-34.0,M,,*51
$GPRMC,121710.00,A,4237.7419,N,08301.8057,W,36.9,180.4,030526,,,A*72
$GPGGA,121710.00,4237.7419,N,08301.8057,W,1,12,1.0,191.9,M,-34.0,M,,*5B
$GPRMC,121720.00,A,4237.6344,N,08301.8041,W,38.7,179.4,030526,,,A*7E
$GPGGA,121720.00,4237.6344,N,08301.8041,W,1,12,1.2,187.4,M,-34.0,M,,*59
$GPRMC,121730.00,A,4237.5255,N,08301.8102,W,39.3,182.3,030526,,,A*7D
$GPGGA,121730.00,4237.5255,N,08301.8102,W,1,12,0.7,201.3,M,-34.0,M,,*52
$GPRMC,121740.00,A,4237.4159,N,08301.8038,W,39.5,177.5,030526,,,A*76
$GPGGA,121740.00,4237.4159,N,08301.8038,W,1,11,0.9,203.9,M,-34.0,M,,*56
$GPRMC,121750.00,A,4237.3052,N,08301.8035,W,39.9,179.9,030526,,,A*79
$GPGGA,121750.00,4237.3052,N,08301.8035,W,1,11,0.8,203.0,M,-34.0,M,,*5F
$GPRMC,121800.00,A,4237.2014,N,08301.8079,W,37.4,181.8,030526,,,A*7D
$GPGGA,121800.00,4237.2014,N,08301.8079,W,1,08,1.3,201.6,M,-34.0,M,,*58
$GPRMC,121810.00,A,4237.0946,N,08301.8045,W,38.5,178.7,030526,,,A*78
$GPGGA,121810.00,4237.0946,N,08301.8045,W,1,09,1.4,196.8,M,-34.0,M,,*5F
$GPRMC,121820.00,A,4236.9810,N,08301.8079,W,40.9,181.3,030526,,,A*7F
$GPGGA,121820.00,4236.9810,N,08301.8079,W,1,11,1.3,188.5,M,-34.0,M,,*55
$GPRMC,121830.00,A,4236.8771,N,08301.8078,W,37.4,179.9,030526,,,A*76
$GPGGA,121830.00,4236.8771,N,08301.8078,W,1,12,1.3,192.7,M,-34.0,M,,*56
$GPRMC,121840.00,A,4236.7639,N,08301.8061,W,40.8,179.4,030526,,,A*7A
$GPGGA,121840.00,4236.7639,N,08301.8061,W,1,11,1.3,190.1,M,-34.0,M,,*5C
$GPRMC,121850.00,A,4236.6571,N,08301.8071,W,38.5,180.4,030526,,,A*70
$GPGGA,121850.00,4236.6571,N,08301.8071,W,1,10,1.2,204.4,M,-34.0,M,,*59
$GPRMC,121900.00,A,4236.5506,N,08301.8044,W,38.4,178.9,030526,,,A*7A
$GPGGA,121900.00,4236.5506,N,08301.8044,W,1,09,0.7,201.7,M,-34.0,M,,*52
$GPRMC,121910.00,A,4236.4455,N,08301.8046,W,37.9,180.1,030526,,,A*72
$GPGGA,121910.00,4236.4455,N,08301.8046,W,1,10,1.0,200.1,M,-34.0,M,,*5E
$GPRMC,121920.00,A,4236.3324,N,08301.8065,W,40.8,180.7,030526,,,A*71
$GPGGA,121920.00,4236.3324,N,08301.8065,W,1,10,1.3,197.2,M,-34.0,M,,*57
$GPRMC,121930.00,A,4236.2276,N,08301.8125,W,37.8,182.4,030526,,,A*73
$GPGGA,121930.00,4236.2276,N,08301.8125,W,1,09,0.9,186.7,M,-34.0,M,,*52
$GPRMC,121940.00,A,4236.1206,N,08301.8054,W,38.6,177.2,030526,,,A*7A
$GPGGA,121940.00,4236.1206,N,08301.8054,W,1,09,0.8,194.6,M,-34.0,M,,*55
$GPRMC,121950.00,A,4236.0087,N,08301.8063,W,40.3,180.4,030526,,,A*71
$GPGGA,121950.00,4236.0087,N,08301.8063,W,1,11,1.3,194.6,M,-34.0,M,,*59
$GPRMC,122000.00,A,4235.9036,N,08301.8069,W,37.8,180.2,030526,,,A*79
$GPGGA,122000.00,4235.9036,N,08301.8069,W,1,11,1.2,188.3,M,-34.0,M,,*55
$GPRMC,122010.00,A,4235.7903,N,08301.8089,W,40.8,180.8,030526,,,A*7D
$GPGGA,122010.00,4235.7903,N,08301.8089,W,1,12,1.4,192.5,M,-34.0,M,,*53
$GPRMC,122020.00,A,4235.6799,N,08301.8143,W,39.8,182.0,030526,,,A*71
$GPGGA,122020.00,4235.6799,N,08301.8143,W,1,12,1.4,188.9,M,-34.0,M,,*5C
$GPRMC,122030.00,A,4235.5713,N,08301.8151,W,39.1,180.3,030526,,,A*7A
$GPGGA,122030.00,4235.5713,N,08301.8151,W,1,08,1.0,198.8,M,-34.0,M,,*50
$GPRMC,122040.00,A,4235.4697,N,08301.8083,W,36.6,177.2,030526,,,A*7E
$GPGGA,122040.00,4235.4697,N,08301.8083,W,1,10,1.4,194.8,M,-34.0,M,,*54
$GPRMC,122050.00,A,4235.3620,N,08301.8070,W,38.8,179.5,030526,,,A*71
$GPGGA,122050.00,4235.3620,N,08301.8070,W,1,08,1.0,201.7,M,-34.0,M,,*5F
$GPRMC,122100.00,A,4235.2501,N,08301.8082,W,40.3,180.4,030526,,,A*7A
$GPGGA,122100.00,4235.2501,N,08301.8082,W,1,09,0.8,201.7,M,-34.0,M,,*5F
$GPRMC,122110.00,A,4235.1403,N,08301.8080,W,39.6,179.9,030526,,,A*79
$GPGGA,122110.00,4235.1403,N,08301.8080,W,1,10,0.8,186.5,M,-34.0,M,,*5A
$GPRMC,122120.00,A,4235.0326,N,08301.8081,W,38.8,180.1,030526,,,A*7B
$GPGGA,122120.00,4235.0326,N,08301.8081,W,1,11,1.3,200.3,M,-34.0,M,,*59
$GPRMC,122130.00,A,4234.9296,N,08301.8092,W,37.1,180.4,030526,,,A*79
$GPGGA,122130.00,4234.9296,N,08301.8092,W,1,09,1.0,196.6,M,-34.0,M,,*5B
$GPRMC,122140.00,A,4234.8212,N,08301.8078,W,39.0,179.5,030526,,,A*7F
$GPGGA,122140.00,4234.8212,N,08301.8078,W,1,10,1.0,185.9,M,-34.0,M,,*50
$GPRMC,122150.00,A,4234.7241,N,08301.8212,W,35.2,185.8,030526,,,A*79
$GPGGA,122150.00,4234.7241,N,08301.8212,W,1,08,1.1,192.8,M,-34.0,M,,*59
$GPRMC,122200.00,A,4234.6226,N,08301.8359,W,36.7,186.1,030526,,,A*7D
$GPGGA,122200.00,4234.6226,N,08301.8359,W,1,10,1.3,199.4,M,-34.0,M,,*5D
$GPRMC,122210.00,A,4234.5242,N,08301.8437,W,35.5,183.3,030526,,,A*74
$GPGGA,122210.00,4234.5242,N,08301.8437,W,1,08,1.0,203.9,M,-34.0,M,,*55
$GPRMC,122220.00,A,4234.4218,N,08301.8542,W,37.0,184.3,030526,,,A*7A
$GPGGA,122220.00,4234.4218,N,08301.8542,W,1,10,0.7,189.0,M,-34.0,M,,*5C
$GPRMC,122230.00,A,4234.3239,N,08301.8645,W,35.4,184.4,030526,,,A*7A
$GPGGA,122230.00,4234.3239,N,08301.8645,W,1,11,1.4,188.3,M,-34.0,M,,*5C
$GPRMC,122240.00,A,4234.2331,N,08301.8737,W,32.8,184.3,030526,,,A*7D
$GPGGA,122240.00,4234.2331,N,08301.8737,W,1,09,0.8,188.7,M,-34.0,M,,*57
$GPRMC,122250.00,A,4234.1337,N,08301.8799,W,35.9,182.6,030526,,,A*78
$GPGGA,122250.00,4234.1337,N,08301.8799,W,1,10,1.4,203.7,M,-34.0,M,,*52
$GPRMC,122300.00,A,4234.0346,N,08301.8933,W,35.9,185.7,030526,,,A*73
$GPGGA,122300.00,4234.0346,N,08301.8933,W,1,11,1.3,204.5,M,-34.0,M,,*5C
$GPRMC,122310.00,A,4233.9345,N,08301.8991,W,36.1,182.4,030526,,,A*78
$GPGGA,122310.00,4233.9345,N,08301.8991,W,1,08,1.1,202.8,M,-34.0,M,,*59
$GPRMC,122320.00,A,4233.8365,N,08301.9122,W,35.5,185.6,030526,,,A*7B
$GPGGA,122320.00,4233.8365,N,08301.9122,W,1,12,1.2,191.8,M,-34.0,M,,*59
$GPRMC,122330.00,A,4233.7368,N,08301.9158,W,35.9,181.5,030526,,,A*7E
$GPGGA,122330.00,4233.7368,N,08301.9158,W,1,08,1.4,197.6,M,-34.0,M,,*52
$GPRMC,122340.00,A,4233.6360,N,08301.9264,W,36.4,184.4,030526,,,A*76
$GPGGA,122340.00,4233.6360,N,08301.9264,W,1,10,1.4,196.5,M,-34.0,M,,*5B
$GPRMC,122350.00,A,4233.5447,N,08301.9360,W,33.0,184.4,030526,,,A*72
$GPGGA,122350.00,4233.5447,N,08301.9360,W,1,11,1.1,199.1,M,-34.0,M,,*51
$GPRMC,122400.00,A,4233.4482,N,08301.9502,W,35.0,186.2,030526,,,A*78
$GPGGA,122400.00,4233.4482,N,08301.9502,W,1,11,1.4,185.6,M,-34.0,M,,*56
$GPRMC,122410.00,A,4233.3499,N,08301.9603,W,35.5,184.4,030526,,,A*77
$GPGGA,122410.00,4233.3499,N,08301.9603,W,1,10,0.8,191.8,M,-34.0,M,,*5F
$GPRMC,122420.00,A,4233.2450,N,08301.9679,W,37.8,183.0,030526,,,A*71
$GPGGA,122420.00,4233.2450,N,08301.9679,W,1,08,1.3,200.0,M,-34.0,M,,*55
$GPRMC,122430.00,A,4233.1474,N,08301.9801,W,35.3,185.2,030526,,,A*79
$GPGGA,122430.00,4233.1474,N,08301.9801,W,1,08,1.0,189.2,M,-34.0,M,,*53
$GPRMC,122440.00,A,4233.0535,N,08301.9868,W,33.9,183.0,030526,,,A*7C
$GPGGA,122440.00,4233.0535,N,08301.9868,W,1,10,1.3,193.3,M,-34.0,M,,*5E
$GPRMC,122450.00,A,4232.9492,N,08302.0007,W,37.7,185.6,030526,,,A*78
$GPGGA,122450.00,4232.9492,N,08302.0007,W,1,10,0.7,187.3,M,-34.0,M,,*50
$GPRMC,122500.00,A,4232.8584,N,08302.0113,W,32.8,184.9,030526,,,A*7B
$GPGGA,122500.00,4232.8584,N,08302.0113,W,1,08,1.3,195.1,M,-34.0,M,,*5A
$GPRMC,122510.00,A,4232.7557,N,08302.0156,W,37.0,181.8,030526,,,A*73
$GPGGA,122510.00,4232.7557,N,08302.0156,W,1,10,0.7,203.4,M,-34.0,M,,*5E
$GPRMC,122520.00,A,4232.6552,N,08302.0304,W,36.4,186.2,030526,,,A*79
$GPGGA,122520.00,4232.6552,N,08302.0304,W,1,10,0.8,199.7,M,-34.0,M,,*50
$GPRMC,122530.00,A,4232.5623,N,08302.0334,W,33.5,181.4,030526,,,A*78
$GPGGA,122530.00,4232.5623,N,08302.0334,W,1,12,1.1,186.9,M,-34.0,M,,*5E
$GPRMC,122540.00,A,4232.4643,N,08302.0415,W,35.3,183.5,030526,,,A*7F
$GPGGA,122540.00,4232.4643,N,08302.0415,W,1,09,0.8,196.0,M,-34.0,M,,*50
$GPRMC,122550.00,A,4232.3640,N,08302.0510,W,36.2,184.0,030526,,,A*7E
$GPGGA,122550.00,4232.3640,N,08302.0510,W,1,11,1.0,193.8,M,-34.0,M,,*5C
$GPRMC,122600.00,A,4232.2661,N,08302.0626,W,35.4,185.0,030526,,,A*78
$GPGGA,122600.00,4232.2661,N,08302.0626,W,1,09,1.0,203.6,M,-34.0,M,,*53
$GPRMC,122610.00,A,4232.1705,N,08302.0751,W,34.6,185.5,030526,,,A*7E
$GPGGA,122610.00,4232.1705,N,08302.0751,W,1,12,1.1,192.4,M,-34.0,M,,*51
$GPRMC,122620.00,A,4232.0669,N,08302.0823,W,37.4,182.9,030526,,,A*77
$GPGGA,122620.00,4232.0669,N,08302.0823,W,1,09,1.2,188.6,M,-34.0,M,,*52
$GPRMC,122630.00,A,4231.9694,N,08302.0915,W,35.2,184.0,030526,,,A*71
$GPGGA,122630.00,4231.9694,N,08302.0915,W,1,09,1.1,196.2,M,-34.0,M,,*57
$GPRMC,122640.00,A,4231.8774,N,08302.1024,W,33.3,185.0,030526,,,A*74
$GPGGA,122640.00,4231.8774,N,08302.1024,W,1,09,0.9,193.5,M,-34.0,M,,*5F
$GPRMC,122650.00,A,4231.7786,N,08302.1116,W,35.7,183.9,030526,,,A*7A
$GPGGA,122650.00,4231.7786,N,08302.1116,W,1,10,1.1,185.3,M,-34.0,M,,*5C
$GPRMC,122700.00,A,4231.6812,N,08302.1281,W,35.4,187.1,030526,,,A*7F
$GPGGA,122700.00,4231.6812,N,08302.1281,W,1,09,0.7,186.4,M,-34.0,M,,*5D
$GPRMC,122710.00,A,4231.5808,N,08302.1343,W,36.2,182.6,030526,,,A*7E
$GPGGA,122710.00,4231.5808,N,08302.1343,W,1,08,1.3,205.0,M,-34.0,M,,*53
$GPRMC,122720.00,A,4231.4806,N,08302.1447,W,36.2,184.3,030526,,,A*72
$GPGGA,122720.00,4231.4806,N,08302.1447,W,1,09,1.3,193.9,M,-34.0,M,,*58
$GPRMC,122730.00,A,4231.3850,N,08302.1558,W,34.6,184.9,030526,,,A*74
$GPGGA,122730.00,4231.3850,N,08302.1558,W,1,11,1.2,194.2,M,-34.0,M,,*56
$GPRMC,122740.00,A,4231.2887,N,08302.1662,W,34.8,184.6,030526,,,A*73
$GPGGA,122740.00,4231.2887,N,08302.1662,W,1,09,0.9,190.1,M,-34.0,M,,*54
$GPRMC,122750.00,A,4231.1854,N,08302.1752,W,37.3,183.7,030526,,,A*73
$GPGGA,122750.00,4231.1854,N,08302.1752,W,1,12,0.9,185.7,M,-34.0,M,,*52
$GPRMC,122800.00,A,4231.0908,N,08302.1856,W,34.2,184.6,030526,,,A*7F
$GPGGA,122800.00,4231.0908,N,08302.1856,W,1,11,0.8,190.1,M,-34.0,M,,*5A
$GPRMC,122810.00,A,4230.9896,N,08302.1880,W,36.5,181.0,030526,,,A*7D
$GPGGA,122810.00,4230.9896,N,08302.1880,W,1,12,1.1,199.5,M,-34.0,M,,*58
$GPRMC,122820.00,A,4230.8961,N,08302.2040,W,34.0,187.2,030526,,,A*72
$GPGGA,122820.00,4230.8961,N,08302.2040,W,1,12,1.1,186.9,M,-34.0,M,,*56
$GPRMC,122830.00,A,4230.7941,N,08302.2067,W,36.8,181.1,030526,,,A*74
$GPGGA,122830.00,4230.7941,N,08302.2067,W,1,09,1.2,196.7,M,-34.0,M,,*59
$GPRMC,122840.00,A,4230.6978,N,08302.2185,W,34.8,185.1,030526,,,A*73
$GPGGA,122840.00,4230.6978,N,08302.2185,W,1,08,0.7,203.3,M,-34.0,M,,*56
$GPRMC,122850.00,A,4230.5973,N,08302.2328,W,36.4,186.0,030526,,,A*73
$GPGGA,122850.00,4230.5973,N,08302.2328,W,1,11,1.3,193.4,M,-34.0,M,,*5A
$GPRMC,122900.00,A,4230.5042,N,08302.2429,W,33.7,184.5,030526,,,A*7B
$GPGGA,122900.00,4230.5042,N,08302.2429,W,1,12,1.3,197.4,M,-34.0,M,,*54
$GPRMC,122910.00,A,4230.4020,N,08302.2500,W,36.9,182.9,030526,,,A*74
$GPGGA,122910.00,4230.4020,N,08302.2500,W,1,09,1.2,196.4,M,-34.0,M,,*50
$GPRMC,122920.00,A,4230.4020,N,08302.2500,W,0.0,0.0,030526,,,A*49
$GPGGA,122920.00,4230.4020,N,08302.2500,W,1,10,0.9,190.0,M,-34.0,M,,*53
$GPRMC,122930.00,A,4230.4020,N,08302.2500,W,0.0,0.0,030526,,,A*48
$GPGGA,122930.00,4230.4020,N,08302.2500,W,1,10,0.9,190.0,M,-34.0,M,,*52
$GPRMC,122940.00,A,4230.4020,N,08302.2500,W,0.0,0.0,030526,,,A*4F
$GPGGA,122940.00,4230.4020,N,08302.2500,W,1,10,0.9,190.0,M,-34.0,M,,*55
$GPRMC,122950.00,A,4230.4020,N,08302.2500,W,0.0,0.0,030526,,,A*4E
$GPGGA,122950.00,4230.4020,N,08302.2500,W,1,10,0.9,190.0,M,-34.0,M,,*54
$GPRMC,123000.00,A,4230.4020,N,08302.2500,W,0.0,0.0,030526,,,A*43
$GPGGA,123000.00,4230.4020,N,08302.2500,W,1,10,0.9,190.0,M,-34.0,M,,*59
$GPRMC,123010.00,A,4230.4020,N,08302.2500,W,0.0,0.0,030526,,,A*42
$GPGGA,123010.00,4230.4020,N,08302.2500,W,1,10,0.9,190.0,M,-34.0,M,,*58
$GPRMC,123020.00,A,4230.4020,N,08302.2500,W,0.0,0.0,030526,,,A*41
$GPGGA,123020.00,4230.4020,N,08302.2500,W,1,10,0.9,190.0,M,-34.0,M,,*5B
$GPRMC,123030.00,A,4230.4020,N,08302.2500,W,0.0,0.0,030526,,,A*40
$GPGGA,123030.00,4230.4020,N,08302.2500,W,1,10,0.9,190.0,M,-34.0,M,,*5A
$GPRMC,123040.00,A,4230.4020,N,08302.2500,W,0.0,0.0,030526,,,A*47
$GPGGA,123040.00,4230.4020,N,08302.2500,W,1,10,0.9,190.0,M,-34.0,M,,*5D
$GPRMC,123050.00,A,4230.4020,N,08302.2500,W,0.0,0.0,030526,,,A*46
$GPGGA,123050.00,4230.4020,N,08302.2500,W,1,10,0.9,190.0,M,-34.0,M,,*5C
$GPRMC,123100.00,A,4230.4020,N,08302.2500,W,0.0,0.0,030526,,,A*42
$GPGGA,123100.00,4230.4020,N,08302.2500,W,1,10,0.9,190.0,M,-34.0,M,,*58
$GPRMC,123110.00,A,4230.4020,N,08302.2500,W,0.0,0.0,030526,,,A*43
$GPGGA,123110.00,4230.4020,N,08302.2500,W,1,10,0.9,190.0,M,-34.0,M,,*59
$GPRMC,123120.00,A,4230.4020,N,08302.2500,W,0.0,0.0,030526,,,A*40
$GPGGA,123120.00,4230.4020,N,08302.2500,W,1,10,0.9,190.0,M,-34.0,M,,*5A
$GPRMC,123130.00,A,4230.4020,N,08302.2500,W,0.0,0.0,030526,,,A*41
$GPGGA,123130.00,4230.4020,N,08302.2500,W,1,10,0.9,190.0,M,-34.0,M,,*5B
$GPRMC,123140.00,A,4230.4020,N,08302.2500,W,0.0,0.0,030526,,,A*46
$GPGGA,123140.00,4230.4020,N,08302.2500,W,1,10,0.9,190.0,M,-34.0,M,,*5C
$GPRMC,123150.00,A,4230.4020,N,08302.2500,W,0.0,0.0,030526,,,A*47
$GPGGA,123150.00,4230.4020,N,08302.2500,W,1,10,0.9,190.0,M,-34.0,M,,*5D
$GPRMC,123200.00,A,4230.4020,N,08302.2500,W,0.0,0.0,030526,,,A*41
$GPGGA,123200.00,4230.4020,N,08302.2500,W,1,10,0.9,190.0,M,-34.0,M,,*5B
$GPRMC,123210.00,A,4230.4020,N,08302.2500,W,0.0,0.0,030526,,,A*40
$GPGGA,123210.00,4230.4020,N,08302.2500,W,1,10,0.9,190.0,M,-34.0,M,,*5A
$GPRMC,123220.00,A,4230.4020,N,08302.2500,W,0.0,0.0,030526,,,A*43
$GPGGA,123220.00,4230.4020,N,08302.2500,W,1,10,0.9,190.0,M,-34.0,M,,*59
$GPRMC,123230.00,A,4230.4020,N,08302.2500,W,0.0,0.0,030526,,,A*42
$GPGGA,123230.00,4230.4020,N,08302.2500,W,1,10,0.9,190.0,M,-34.0,M,,*58
$GPRMC,123240.00,A,4230.4020,N,08302.2500,W,0.0,0.0,030526,,,A*45
$GPGGA,123240.00,4230.4020,N,08302.2500,W,1,10,0.9,190.0,M,-34.0,M,,*5F
$GPRMC,123250.00,A,4230.4020,N,08302.2500,W,0.0,0.0,030526,,,A*44
$GPGGA,123250.00,4230.4020,N,08302.2500,W,1,10,0.9,190.0,M,-34.0,M,,*5E
$GPRMC,123300.00,A,4230.4020,N,08302.2500,W,0.0,0.0,030526,,,A*40
$GPGGA,123300.00,4230.4020,N,08302.2500,W,1,10,0.9,190.0,M,-34.0,M,,*5A
$GPRMC,123310.00,A,4230.4020,N,08302.2500,W,0.0,0.0,030526,,,A*41
$GPGGA,123310.00,4230.4020,N,08302.2500,W,1,10,0.9,190.0,M,-34.0,M,,*5B
$GPRMC,123320.00,A,4230.4020,N,08302.2500,W,0.0,0.0,030526,,,A*42
$GPGGA,123320.00,4230.4020,N,08302.2500,W,1,10,0.9,190.0,M,-34.0,M,,*58
$GPRMC,123330.00,A,4230.4020,N,08302.2500,W,0.0,0.0,030526,,,A*43
$GPGGA,123330.00,4230.4020,N,08302.2500,W,1,10,0.9,190.0,M,-34.0,M,,*59
$GPRMC,123340.00,A,4230.4020,N,08302.2500,W,0.0,0.0,030526,,,A*44
$GPGGA,123340.00,4230.4020,N,08302.2500,W,1,10,0.9,190.0,M,-34.0,M,,*5E
$GPRMC,123350.00,A,4230.4020,N,08302.2500,W,0.0,0.0,030526,,,A*45
$GPGGA,123350.00,4230.4020,N,08302.2500,W,1,10,0.9,190.0,M,-34.0,M,,*5F
$GPRMC,123400.00,A,4230.4020,N,08302.2500,W,0.0,0.0,030526,,,A*47
$GPGGA,123400.00,4230.4020,N,08302.2500,W,1,10,0.9,190.0,M,-34.0,M,,*5D
$GPRMC,123410.00,A,4230.4020,N,08302.2500,W,0.0,0.0,030526,,,A*46
$GPGGA,123410.00,4230.4020,N,08302.2500,W,1,10,0.9,190.0,M,-34.0,M,,*5C
$GPRMC,123420.00,A,4230.4020,N,08302.2500,W,0.0,0.0,030526,,,A*45
$GPGGA,123420.00,4230.4020,N,08302.2500,W,1,10,0.9,190.0,M,-34.0,M,,*5F
$GPRMC,123430.00,A,4230.4020,N,08302.2500,W,0.0,0.0,030526,,,A*44
$GPGGA,123430.00,4230.4020,N,08302.2500,W,1,10,0.9,190.0,M,-34.0,M,,*5E
$GPRMC,123440.00,A,4230.4020,N,08302.2500,W,0.0,0.0,030526,,,A*43
$GPGGA,123440.00,4230.4020,N,08302.2500,W,1,10,0.9,190.0,M,-34.0,M,,*59
$GPRMC,123450.00,A,4230.4020,N,08302.2500,W,0.0,0.0,030526,,,A*42
$GPGGA,123450.00,4230.4020,N,08302.2500,W,1,10,0.9,190.0,M,-34.0,M,,*58
$GPRMC,123500.00,A,4230.4020,N,08302.2500,W,0.0,0.0,030526,,,A*46
$GPGGA,123500.00,4230.4020,N,08302.2500,W,1,10,0.9,190.0,M,-34.0,M,,*5C
$GPRMC,123510.00,A,4230.4020,N,08302.2500,W,0.0,0.0,030526,,,A*47
$GPGGA,123510.00,4230.4020,N,08302.2500,W,1,10,0.9,190.0,M,-34.0,M,,*5D
$GPRMC,123520.00,A,4230.4020,N,08302.2500,W,0.0,0.0,030526,,,A*44
$GPGGA,123520.00,4230.4020,N,08302.2500,W,1,10,0.9,190.0,M,-34.0,M,,*5E
$GPRMC,123530.00,A,4230.4020,N,08302.2500,W,0.0,0.0,030526,,,A*45
$GPGGA,123530.00,4230.4020,N,08302.2500,W,1,10,0.9,190.0,M,-34.0,M,,*5F
$GPRMC,123540.00,A,4230.4020,N,08302.2500,W,0.0,0.0,030526,,,A*42
$GPGGA,123540.00,4230.4020,N,08302.2500,W,1,10,0.9,190.0,M,-34.0,M,,*58
$GPRMC,123550.00,A,4230.4020,N,08302.2500,W,0.0,0.0,030526,,,A*43
$GPGGA,123550.00,4230.4020,N,08302.2500,W,1,10,0.9,190.0,M,-34.0,M,,*59
$GPRMC,123600.00,A,4230.4020,N,08302.2500,W,0.0,0.0,030526,,,A*45
$GPGGA,123600.00,4230.4020,N,08302.2500,W,1,10,0.9,190.0,M,-34.0,M,,*5F
$GPRMC,123610.00,A,4230.4020,N,08302.2500,W,0.0,0.0,030526,,,A*44
$GPGGA,123610.00,4230.4020,N,08302.2500,W,1,10,0.9,190.0,M,-34.0,M,,*5E
$GPRMC,123620.00,A,4230.4020,N,08302.2500,W,0.0,0.0,030526,,,A*47
$GPGGA,123620.00,4230.4020,N,08302.2500,W,1,10,0.9,190.0,M,-34.0,M,,*5D
$GPRMC,123630.00,A,4230.4020,N,08302.2500,W,0.0,0.0,030526,,,A*46
$GPGGA,123630.00,4230.4020,N,08302.2500,W,1,10,0.9,190.0,M,-34.0,M,,*5C
$GPRMC,123640.00,A,4230.4020,N,08302.2500,W,0.0,0.0,030526,,,A*41
$GPGGA,123640.00,4230.4020,N,08302.2500,W,1,10,0.9,190.0,M,-34.0,M,,*5B
$GPRMC,123650.00,A,4230.4020,N,08302.2500,W,0.0,0.0,030526,,,A*40
$GPGGA,123650.00,4230.4020,N,08302.2500,W,1,10,0.9,190.0,M,-34.0,M,,*5A
$GPRMC,123700.00,A,4230.4020,N,08302.2500,W,0.0,0.0,030526,,,A*44
$GPGGA,123700.00,4230.4020,N,08302.2500,W,1,10,0.9,190.0,M,-34.0,M,,*5E
$GPRMC,123710.00,A,4230.4020,N,08302.2500,W,0.0,0.0,030526,,,A*45
$GPGGA,123710.00,4230.4020,N,08302.2500,W,1,10,0.9,190.0,M,-34.0,M,,*5F
$GPRMC,123720.00,A,4230.4020,N,08302.2500,W,0.0,0.0,030526,,,A*46
$GPGGA,123720.00,4230.4020,N,08302.2500,W,1,10,0.9,190.0,M,-34.0,M,,*5C
$GPRMC,123730.00,A,4230.4020,N,08302.2500,W,0.0,0.0,030526,,,A*47
$GPGGA,123730.00,4230.4020,N,08302.2500,W,1,10,0.9,190.0,M,-34.0,M,,*5D
$GPRMC,123740.00,A,4230.4020,N,08302.2500,W,0.0,0.0,030526,,,A*40
$GPGGA,123740.00,4230.4020,N,08302.2500,W,1,10,0.9,190.0,M,-34.0,M,,*5A
$GPRMC,123750.00,A,4230.4020,N,08302.2500,W,0.0,0.0,030526,,,A*41
$GPGGA,123750.00,4230.4020,N,08302.2500,W,1,10,0.9,190.0,M,-34.0,M,,*5B
$GPRMC,123800.00,A,4230.4020,N,08302.2500,W,0.0,0.0,030526,,,A*4B
$GPGGA,123800.00,4230.4020,N,08302.2500,W,1,10,0.9,190.0,M,-34.0,M,,*51
$GPRMC,123810.00,A,4230.4020,N,08302.2500,W,0.0,0.0,030526,,,A*4A
$GPGGA,123810.00,4230.4020,N,08302.2500,W,1,10,0.9,190.0,M,-34.0,M,,*50
$GPRMC,123820.00,A,4230.4020,N,08302.2500,W,0.0,0.0,030526,,,A*49
$GPGGA,123820.00,4230.4020,N,08302.2500,W,1,10,0.9,190.0,M,-34.0,M,,*53
$GPRMC,123830.00,A,4230.4020,N,08302.2500,W,0.0,0.0,030526,,,A*48
$GPGGA,123830.00,4230.4020,N,08302.2500,W,1,10,0.9,190.0,M,-34.0,M,,*52
$GPRMC,123840.00,A,4230.4020,N,08302.2500,W,0.0,0.0,030526,,,A*4F
$GPGGA,123840.00,4230.4020,N,08302.2500,W,1,10,0.9,190.0,M,-34.0,M,,*55
$GPRMC,123850.00,A,4230.4020,N,08302.2500,W,0.0,0.0,030526,,,A*4E
$GPGGA,123850.00,4230.4020,N,08302.2500,W,1,10,0.9,190.0,M,-34.0,M,,*54
$GPRMC,123900.00,A,4230.4020,N,08302.2500,W,0.0,0.0,030526,,,A*4A
$GPGGA,123900.00,4230.4020,N,08302.2500,W,1,10,0.9,190.0,M,-34.0,M,,*50
$GPRMC,123910.00,A,4230.4020,N,08302.2500,W,0.0,0.0,030526,,,A*4B
$GPGGA,123910.00,4230.4020,N,08302.2500,W,1,10,0.9,190.0,M,-34.0,M,,*51
$GPRMC,123920.00,A,4230.3988,N,08302.2489,W,0.0,0.0,030526,,,A*44
$GPGGA,123920.00,4230.3988,N,08302.2489,W,1,12,1.4,194.0,M,-34.0,M,,*54
$GPRMC,123930.00,A,4230.5046,N,08302.2447,W,38.2,1.7,030526,,,A*75
$GPGGA,123930.00,4230.5046,N,08302.2447,W,1,09,1.1,195.5,M,-34.0,M,,*51
$GPRMC,123940.00,A,4230.6007,N,08302.2276,W,34.9,7.5,030526,,,A*73
$GPGGA,123940.00,4230.6007,N,08302.2276,W,1,08,0.8,185.2,M,-34.0,M,,*5B
$GPRMC,123950.00,A,4230.6993,N,08302.2234,W,35.5,1.8,030526,,,A*76
$GPGGA,123950.00,4230.6993,N,08302.2234,W,1,09,0.9,187.8,M,-34.0,M,,*50
$GPRMC,124000.00,A,4230.7962,N,08302.2107,W,35.1,5.5,030526,,,A*7C
$GPGGA,124000.00,4230.7962,N,08302.2107,W,1,08,1.2,199.3,M,-34.0,M,,*58
$GPRMC,124010.00,A,4230.8965,N,08302.2008,W,36.2,4.1,030526,,,A*7E
$GPGGA,124010.00,4230.8965,N,08302.2008,W,1,10,0.8,204.5,M,-34.0,M,,*5C
$GPRMC,124020.00,A,4230.9899,N,08302.1950,W,33.7,2.6,030526,,,A*78
$GPGGA,124020.00,4230.9899,N,08302.1950,W,1,09,0.8,189.0,M,-34.0,M,,*50
$GPRMC,124030.00,A,4231.0932,N,08302.1796,W,37.4,6.3,030526,,,A*73
$GPGGA,124030.00,4231.0932,N,08302.1796,W,1,09,0.7,197.1,M,-34.0,M,,*5C
$GPRMC,124040.00,A,4231.1890,N,08302.1718,W,34.6,3.4,030526,,,A*79
$GPGGA,124040.00,4231.1890,N,08302.1718,W,1,10,1.4,201.3,M,-34.0,M,,*51
$GPRMC,124050.00,A,4231.2857,N,08302.1654,W,34.9,2.8,030526,,,A*7B
$GPGGA,124050.00,4231.2857,N,08302.1654,W,1,09,1.2,190.4,M,-34.0,M,,*53
$GPRMC,124100.00,A,4231.3799,N,08302.1574,W,34.0,3.5,030526,,,A*77
$GPGGA,124100.00,4231.3799,N,08302.1574,W,1,11,1.2,198.7,M,-34.0,M,,*58
$GPRMC,124110.00,A,4231.4813,N,08302.1382,W,36.9,8.0,030526,,,A*76
$GPGGA,124110.00,4231.4813,N,08302.1382,W,1,08,1.4,195.0,M,-34.0,M,,*58
$GPRMC,124120.00,A,4231.5768,N,08302.1287,W,34.5,4.2,030526,,,A*73
$GPGGA,124120.00,4231.5768,N,08302.1287,W,1,09,1.1,203.2,M,-34.0,M,,*57
$GPRMC,124130.00,A,4231.6749,N,08302.1262,W,35.3,1.0,030526,,,A*79
$GPGGA,124130.00,4231.6749,N,08302.1262,W,1,12,1.0,185.8,M,-34.0,M,,*51
$GPRMC,124140.00,A,4231.7714,N,08302.1156,W,34.9,4.7,030526,,,A*7A
$GPGGA,124140.00,4231.7714,N,08302.1156,W,1,08,0.9,188.6,M,-34.0,M,,*5B
$GPRMC,124150.00,A,4231.8757,N,08302.1037,W,37.7,4.8,030526,,,A*77
$GPGGA,124150.00,4231.8757,N,08302.1037,W,1,08,1.2,202.7,M,-34.0,M,,*5E
$GPRMC,124200.00,A,4231.9690,N,08302.0895,W,33.8,6.4,030526,,,A*7E
$GPGGA,124200.00,4231.9690,N,08302.0895,W,1,11,1.1,198.5,M,-34.0,M,,*5B
$GPRMC,124210.00,A,4232.0726,N,08302.0865,W,37.3,1.2,030526,,,A*78
$GPGGA,124210.00,4232.0726,N,08302.0865,W,1,12,0.9,201.3,M,-34.0,M,,*5C
$GPRMC,124220.00,A,4232.1712,N,08302.0783,W,35.6,3.5,030526,,,A*78
$GPGGA,124220.00,4232.1712,N,08302.0783,W,1,10,1.0,195.9,M,-34.0,M,,*50
$GPRMC,124230.00,A,4232.2684,N,08302.0653,W,35.2,5.6,030526,,,A*79
$GPGGA,124230.00,4232.2684,N,08302.0653,W,1,10,1.0,191.5,M,-34.0,M,,*58
$GPRMC,124240.00,A,4232.3638,N,08302.0581,W,34.4,3.2,030526,,,A*71
$GPGGA,124240.00,4232.3638,N,08302.0581,W,1,12,1.2,190.4,M,-34.0,M,,*55
$GPRMC,124250.00,A,4232.4585,N,08302.0462,W,34.3,5.3,030526,,,A*7E
$GPGGA,124250.00,4232.4585,N,08302.0462,W,1,08,1.2,204.7,M,-34.0,M,,*5C
$GPRMC,124300.00,A,4232.5598,N,08302.0391,W,36.5,3.0,030526,,,A*7D
$GPGGA,124300.00,4232.5598,N,08302.0391,W,1,11,0.7,186.1,M,-34.0,M,,*5D
$GPRMC,124310.00,A,4232.6598,N,08302.0213,W,36.3,7.4,030526,,,A*72
$GPGGA,124310.00,4232.6598,N,08302.0213,W,1,10,1.3,188.7,M,-34.0,M,,*58
$GPRMC,124320.00,A,4232.7585,N,08302.0165,W,35.6,2.1,030526,,,A*78
$GPGGA,124320.00,4232.7585,N,08302.0165,W,1,12,1.0,186.6,M,-34.0,M,,*5A
$GPRMC,124330.00,A,4232.8528,N,08302.0068,W,34.1,4.3,030526,,,A*7F
$GPGGA,124330.00,4232.8528,N,08302.0068,W,1,11,1.0,186.9,M,-34.0,M,,*53
$GPRMC,124340.00,A,4232.9508,N,08301.9963,W,35.4,4.5,030526,,,A*71
$GPGGA,124340.00,4232.9508,N,08301.9963,W,1,11,1.3,194.9,M,-34.0,M,,*5F
$GPRMC,124350.00,A,4233.0543,N,08301.9861,W,37.4,4.1,030526,,,A*72
$GPGGA,124350.00,4233.0543,N,08301.9861,W,1,12,1.2,198.7,M,-34.0,M,,*5A
$GPRMC,124400.00,A,4233.1497,N,08301.9794,W,34.4,2.9,030526,,,A*71
$GPGGA,124400.00,4233.1497,N,08301.9794,W,1,10,0.8,191.0,M,-34.0,M,,*53
$GPRMC,124410.00,A,4233.2446,N,08301.9689,W,34.3,4.7,030526,,,A*7D
$GPGGA,124410.00,4233.2446,N,08301.9689,W,1,10,1.1,194.6,M,-34.0,M,,*5B
$GPRMC,124420.00,A,4233.3463,N,08301.9619,W,36.7,2.9,030526,,,A*7F
$GPGGA,124420.00,4233.3463,N,08301.9619,W,1,08,1.2,188.7,M,-34.0,M,,*51
$GPRMC,124430.00,A,4233.4433,N,08301.9448,W,35.2,7.4,030526,,,A*74
$GPGGA,124430.00,4233.4433,N,08301.9448,W,1,12,0.9,197.1,M,-34.0,M,,*5D
$GPRMC,124440.00,A,4233.5410,N,08301.9353,W,35.3,4.1,030526,,,A*79
$GPGGA,124440.00,4233.5410,N,08301.9353,W,1,11,0.7,199.5,M,-34.0,M,,*50
$GPRMC,124450.00,A,4233.6439,N,08301.9326,W,37.1,1.1,030526,,,A*77
$GPGGA,124450.00,4233.6439,N,08301.9326,W,1,09,1.2,204.0,M,-34.0,M,,*54
$GPRMC,124500.00,A,4233.7409,N,08301.9144,W,35.3,7.9,030526,,,A*79
$GPGGA,124500.00,4233.7409,N,08301.9144,W,1,09,1.4,196.8,M,-34.0,M,,*52
$GPRMC,124510.00,A,4233.8377,N,08301.9066,W,34.9,3.4,030526,,,A*7A
$GPGGA,124510.00,4233.8377,N,08301.9066,W,1,08,1.3,191.2,M,-34.0,M,,*58
$GPRMC,124520.00,A,4233.9309,N,08301.9000,W,33.6,3.0,030526,,,A*7D
$GPGGA,124520.00,4233.9309,N,08301.9000,W,1,10,0.8,189.5,M,-34.0,M,,*5E
$GPRMC,124530.00,A,4234.0303,N,08301.8855,W,36.0,6.2,030526,,,A*75
$GPGGA,124530.00,4234.0303,N,08301.8855,W,1,10,1.1,193.8,M,-34.0,M,,*5C
$GPRMC,124540.00,A,4234.1318,N,08301.8784,W,36.6,2.9,030526,,,A*73
$GPGGA,124540.00,4234.1318,N,08301.8784,W,1,11,1.2,189.3,M,-34.0,M,,*51
$GPRMC,124550.00,A,4234.2292,N,08301.8735,W,35.1,2.1,030526,,,A*74
$GPGGA,124550.00,4234.2292,N,08301.8735,W,1,10,1.2,189.7,M,-34.0,M,,*5F
$GPRMC,124600.00,A,4234.3279,N,08301.8603,W,35.7,5.6,030526,,,A*74
$GPGGA,124600.00,4234.3279,N,08301.8603,W,1,11,0.8,198.5,M,-34.0,M,,*51
$GPRMC,124610.00,A,4234.4260,N,08301.8510,W,35.4,4.0,030526,,,A*7F
$GPGGA,124610.00,4234.4260,N,08301.8510,W,1,09,0.7,189.1,M,-34.0,M,,*5C
$GPRMC,124620.00,A,4234.5225,N,08301.8396,W,34.9,4.9,030526,,,A*71
$GPGGA,124620.00,4234.5225,N,08301.8396,W,1,10,1.0,188.8,M,-34.0,M,,*51
$GPRMC,124630.00,A,4234.6216,N,08301.8267,W,35.9,5.5,030526,,,A*70
$GPGGA,124630.00,4234.6216,N,08301.8267,W,1,11,0.8,202.0,M,-34.0,M,,*5D
$GPRMC,124640.00,A,4234.7202,N,08301.8223,W,35.5,1.9,030526,,,A*77
$GPGGA,124640.00,4234.7202,N,08301.8223,W,1,10,1.3,197.9,M,-34.0,M,,*53
$GPRMC,124650.00,A,4234.8148,N,08301.8095,W,34.3,5.7,030526,,,A*76
$GPGGA,124650.00,4234.8148,N,08301.8095,W,1,12,1.1,190.3,M,-34.0,M,,*52
$GPRMC,124700.00,A,4234.9284,N,08301.8097,W,40.9,359.9,030526,,,A*7F
$GPGGA,124700.00,4234.9284,N,08301.8097,W,1,10,1.4,187.3,M,-34.0,M,,*57
$GPRMC,124710.00,A,4235.0337,N,08301.8138,W,37.9,358.4,030526,,,A*77
$GPGGA,124710.00,4235.0337,N,08301.8138,W,1,12,0.9,203.3,M,-34.0,M,,*52
$GPRMC,124720.00,A,4235.1397,N,08301.8110,W,38.2,1.1,030526,,,A*7B
$GPGGA,124720.00,4235.1397,N,08301.8110,W,1,10,1.2,190.4,M,-34.0,M,,*56
$GPRMC,124730.00,A,4235.2541,N,08301.8147,W,41.2,358.6,030526,,,A*70
$GPGGA,124730.00,4235.2541,N,08301.8147,W,1,10,1.3,190.9,M,-34.0,M,,*57
$GPRMC,124740.00,A,4235.3637,N,08301.8152,W,39.5,359.8,030526,,,A*77
$GPGGA,124740.00,4235.3637,N,08301.8152,W,1,12,1.1,201.1,M,-34.0,M,,*54
$GPRMC,124750.00,A,4235.4680,N,08301.8081,W,37.6,2.9,030526,,,A*73
$GPGGA,124750.00,4235.4680,N,08301.8081,W,1,12,0.8,186.5,M,-34.0,M,,*51
$GPRMC,124800.00,A,4235.5772,N,08301.8070,W,39.3,0.4,030526,,,A*7E
$GPGGA,124800.00,4235.5772,N,08301.8070,W,1,09,0.8,200.2,M,-34.0,M,,*58
$GPRMC,124810.00,A,4235.6827,N,08301.8093,W,38.0,359.1,030526,,,A*76
$GPGGA,124810.00,4235.6827,N,08301.8093,W,1,09,1.1,194.7,M,-34.0,M,,*5B
$GPRMC,124820.00,A,4235.7916,N,08301.8143,W,39.3,358.1,030526,,,A*78
$GPGGA,124820.00,4235.7916,N,08301.8143,W,1,08,0.9,199.7,M,-34.0,M,,*53
$GPRMC,124830.00,A,4235.8967,N,08301.8081,W,37.9,2.5,030526,,,A*73
$GPGGA,124830.00,4235.8967,N,08301.8081,W,1,12,1.2,202.0,M,-34.0,M,,*53
$GPRMC,124840.00,A,4236.0045,N,08301.8078,W,38.9,0.1,030526,,,A*79
$GPGGA,124840.00,4236.0045,N,08301.8078,W,1,10,1.0,191.7,M,-34.0,M,,*5E
$GPRMC,124850.00,A,4236.1193,N,08301.8074,W,41.4,0.2,030526,,,A*7F
$GPGGA,124850.00,4236.1193,N,08301.8074,W,1,12,1.3,201.3,M,-34.0,M,,*57
$GPRMC,124900.00,A,4236.2211,N,08301.8094,W,36.7,359.2,030526,,,A*73
$GPGGA,124900.00,4236.2211,N,08301.8094,W,1,11,1.2,187.6,M,-34.0,M,,*5D
$GPRMC,124910.00,A,4236.3297,N,08301.8060,W,39.1,1.3,030526,,,A*70
$GPGGA,124910.00,4236.3297,N,08301.8060,W,1,10,1.2,203.9,M,-34.0,M,,*59
$GPRMC,124920.00,A,4236.4437,N,08301.8051,W,41.1,0.3,030526,,,A*74
$GPGGA,124920.00,4236.4437,N,08301.8051,W,1,12,0.9,200.6,M,-34.0,M,,*57
$GPRMC,124930.00,A,4236.5497,N,08301.8123,W,38.2,357.1,030526,,,A*74
$GPGGA,124930.00,4236.5497,N,08301.8123,W,1,11,1.2,193.3,M,-34.0,M,,*5C
$GPRMC,124940.00,A,4236.6571,N,08301.8048,W,38.7,3.0,030526,,,A*73
$GPGGA,124940.00,4236.6571,N,08301.8048,W,1,09,1.3,196.9,M,-34.0,M,,*5A
$GPRMC,124950.00,A,4236.7644,N,08301.8107,W,38.7,357.7,030526,,,A*79
$GPGGA,124950.00,4236.7644,N,08301.8107,W,1,08,0.7,200.5,M,-34.0,M,,*51
$GPRMC,125000.00,A,4236.8717,N,08301.8042,W,38.7,2.6,030526,,,A*7E
$GPGGA,125000.00,4236.8717,N,08301.8042,W,1,12,1.4,193.9,M,-34.0,M,,*58
$GPRMC,125010.00,A,4236.9805,N,08301.8073,W,39.2,358.8,030526,,,A*76
$GPGGA,125010.00,4236.9805,N,08301.8073,W,1,12,1.4,194.5,M,-34.0,M,,*5D
$GPRMC,125020.00,A,4237.0933,N,08301.8095,W,40.6,359.2,030526,,,A*70
$GPGGA,125020.00,4237.0933,N,08301.8095,W,1,12,1.0,194.1,M,-34.0,M,,*5A
$GPRMC,125030.00,A,4237.1951,N,08301.8078,W,36.7,0.7,030526,,,A*7D
$GPGGA,125030.00,4237.1951,N,08301.8078,W,1,08,0.9,198.2,M,-34.0,M,,*51
$GPRMC,125040.00,A,4237.3042,N,08301.8106,W,39.3,358.9,030526,,,A*70
$GPGGA,125040.00,4237.3042,N,08301.8106,W,1,11,0.7,197.5,M,-34.0,M,,*59
$GPRMC,125050.00,A,4237.4155,N,08301.8086,W,40.1,0.8,030526,,,A*7B
$GPGGA,125050.00,4237.4155,N,08301.8086,W,1,11,1.1,202.0,M,-34.0,M,,*5C
$GPRMC,125100.00,A,4237.5240,N,08301.8021,W,39.2,2.5,030526,,,A*76
$GPGGA,125100.00,4237.5240,N,08301.8021,W,1,08,1.3,199.3,M,-34.0,M,,*5B
$GPRMC,125110.00,A,4237.6275,N,08301.8085,W,37.3,357.4,030526,,,A*71
$GPGGA,125110.00,4237.6275,N,08301.8085,W,1,11,1.3,199.5,M,-34.0,M,,*5F
$GPRMC,125120.00,A,4237.7372,N,08301.8029,W,39.6,2.2,030526,,,A*7D
$GPGGA,125120.00,4237.7372,N,08301.8029,W,1,10,0.8,186.1,M,-34.0,M,,*5C
$GPRMC,125130.00,A,4237.8445,N,08301.8073,W,38.7,358.3,030526,,,A*72
$GPGGA,125130.00,4237.8445,N,08301.8073,W,1,09,0.8,186.3,M,-34.0,M,,*54
$GPRMC,125140.00,A,4237.9554,N,08301.8012,W,40.0,2.3,030526,,,A*76
$GPGGA,125140.00,4237.9554,N,08301.8012,W,1,11,0.7,189.2,M,-34.0,M,,*5C
$GPRMC,125150.00,A,4238.0624,N,08301.8092,W,38.6,356.9,030526,,,A*7C
$GPGGA,125150.00,4238.0624,N,08301.8092,W,1,11,1.3,189.9,M,-34.0,M,,*59
$GPRMC,125200.00,A,4238.1743,N,08301.8020,W,40.4,2.7,030526,,,A*73
$GPGGA,125200.00,4238.1743,N,08301.8020,W,1,08,1.1,188.6,M,-34.0,M,,*53
$GPRMC,125210.00,A,4238.2781,N,08301.8086,W,37.4,357.3,030526,,,A*74
$GPGGA,125210.00,4238.2781,N,08301.8086,W,1,08,0.7,189.1,M,-34.0,M,,*52
$GPRMC,125220.00,A,4238.3872,N,08301.8063,W,39.3,0.9,030526,,,A*7C
$GPGGA,125220.00,4238.3872,N,08301.8063,W,1,09,1.1,191.0,M,-34.0,M,,*56
$GPRMC,125230.00,A,4238.5018,N,08301.7998,W,41.3,2.4,030526,,,A*7D
$GPGGA,125230.00,4238.5018,N,08301.7998,W,1,11,0.9,197.9,M,-34.0,M,,*58
$GPRMC,125240.00,A,4238.6023,N,08301.8058,W,36.3,357.5,030526,,,A*79
$GPGGA,125240.00,4238.6023,N,08301.8058,W,1,10,1.0,204.9,M,-34.0,M,,*5E
$GPRMC,125250.00,A,4238.7128,N,08301.7995,W,39.8,2.4,030526,,,A*72
$GPGGA,125250.00,4238.7128,N,08301.7995,W,1,11,0.7,185.7,M,-34.0,M,,*50
$GPRMC,125300.00,A,4238.8190,N,08301.8048,W,38.3,357.9,030526,,,A*78
$GPGGA,125300.00,4238.8190,N,08301.8048,W,1,10,1.0,202.8,M,-34.0,M,,*5A
$GPRMC,125310.00,A,4238.9304,N,08301.7983,W,40.2,2.4,030526,,,A*76
$GPGGA,125310.00,4238.9304,N,08301.7983,W,1,08,0.8,187.5,M,-34.0,M,,*57
$GPRMC,125320.00,A,4239.0351,N,08301.8073,W,37.8,356.4,030526,,,A*7C
$GPGGA,125320.00,4239.0351,N,08301.8073,W,1,08,1.0,200.0,M,-34.0,M,,*55
$GPRMC,125330.00,A,4239.1495,N,08301.8007,W,41.3,2.4,030526,,,A*78
$GPGGA,125330.00,4239.1495,N,08301.8007,W,1,12,0.9,189.4,M,-34.0,M,,*5C
$GPRMC,125340.00,A,4239.2589,N,08301.8056,W,39.4,358.1,030526,,,A*75
$GPGGA,125340.00,4239.2589,N,08301.8056,W,1,08,1.0,201.9,M,-34.0,M,,*5D
$GPRMC,125350.00,A,4239.3659,N,08301.8004,W,38.6,2.0,030526,,,A*72
$GPGGA,125350.00,4239.3659,N,08301.8004,W,1,11,0.9,189.4,M,-34.0,M,,*5A
$GPRMC,125400.00,A,4239.4757,N,08301.8013,W,39.6,359.7,030526,,,A*75
$GPGGA,125400.00,4239.4757,N,08301.8013,W,1,08,0.8,199.2,M,-34.0,M,,*58
$GPRMC,125410.00,A,4239.5797,N,08301.8020,W,37.5,359.7,030526,,,A*74
$GPGGA,125410.00,4239.5797,N,08301.8020,W,1,11,0.7,196.4,M,-34.0,M,,*5A
$GPRMC,125420.00,A,4239.6887,N,08301.8010,W,39.3,0.4,030526,,,A*7D
$GPGGA,125420.00,4239.6887,N,08301.8010,W,1,08,0.9,185.0,M,-34.0,M,,*57
$GPRMC,125430.00,A,4239.7974,N,08301.8044,W,39.2,358.7,030526,,,A*7D
$GPGGA,125430.00,4239.7974,N,08301.8044,W,1,10,0.9,190.3,M,-34.0,M,,*55
$GPRMC,125440.00,A,4239.9041,N,08301.8032,W,38.4,0.4,030526,,,A*70
$GPGGA,125440.00,4239.9041,N,08301.8032,W,1,12,0.9,187.2,M,-34.0,M,,*57
$GPRMC,125450.00,A,4240.0123,N,08301.8017,W,39.0,0.6,030526,,,A*73
$GPGGA,125450.00,4240.0123,N,08301.8017,W,1,08,0.9,196.3,M,-34.0,M,,*59
$GPRMC,125500.00,A,4240.1232,N,08301.7971,W,40.0,1.8,030526,,,A*72
$GPGGA,125500.00,4240.1232,N,08301.7971,W,1,09,1.2,197.9,M,-34.0,M,,*59
$GPRMC,125510.00,A,4240.2340,N,08301.7956,W,39.9,0.6,030526,,,A*79
$GPGGA,125510.00,4240.2340,N,08301.7956,W,1,09,0.7,196.7,M,-34.0,M,,*51
$GPRMC,125520.00,A,4240.3213,N,08301.8075,W,31.6,354.3,030526,,,A*7B
$GPGGA,125520.00,4240.3213,N,08301.8075,W,1,10,0.9,198.9,M,-34.0,M,,*55
$GPRMC,125530.00,A,4240.4161,N,08301.8209,W,34.3,354.1,030526,,,A*70
$GPGGA,125530.00,4240.4161,N,08301.8209,W,1,09,1.0,201.8,M,-34.0,M,,*5E
$GPRMC,125540.00,A,4240.5091,N,08301.8338,W,33.7,354.1,030526,,,A*78
$GPGGA,125540.00,4240.5091,N,08301.8338,W,1,12,0.7,193.4,M,-34.0,M,,*5D
$GPRMC,125550.00,A,4240.6036,N,08301.8390,W,34.1,357.7,030526,,,A*71
$GPGGA,125550.00,4240.6036,N,08301.8390,W,1,12,1.4,189.1,M,-34.0,M,,*5C
$GPRMC,125600.00,A,4240.6926,N,08301.8528,W,32.3,353.5,030526,,,A*78
$GPGGA,125600.00,4240.6926,N,08301.8528,W,1,09,0.9,200.0,M,-34.0,M,,*52
$GPRMC,125610.00,A,4240.7890,N,08301.8627,W,34.9,355.7,030526,,,A*70
$GPGGA,125610.00,4240.7890,N,08301.8627,W,1,10,1.1,189.6,M,-34.0,M,,*57
$GPRMC,125620.00,A,4240.8758,N,08301.8708,W,31.3,356.1,030526,,,A*71
$GPGGA,125620.00,4240.8758,N,08301.8708,W,1,10,1.1,193.3,M,-34.0,M,,*52
$GPRMC,125630.00,A,4240.9703,N,08301.8791,W,34.1,356.3,030526,,,A*7A
$GPGGA,125630.00,4240.9703,N,08301.8791,W,1,09,1.1,198.4,M,-34.0,M,,*58
$GPRMC,125640.00,A,4241.0662,N,08301.8953,W,34.8,352.9,030526,,,A*74
$GPGGA,125640.00,4241.0662,N,08301.8953,W,1,08,1.1,186.0,M,-34.0,M,,*5B
$GPRMC,125650.00,A,4241.1530,N,08301.8989,W,31.3,358.2,030526,,,A*78
$GPGGA,125650.00,4241.1530,N,08301.8989,W,1,11,1.1,198.1,M,-34.0,M,,*5E
$GPRMC,125700.00,A,4241.2500,N,08301.9147,W,35.2,353.2,030526,,,A*79
$GPGGA,125700.00,4241.2500,N,08301.9147,W,1,12,1.3,190.6,M,-34.0,M,,*5F
$GPRMC,125710.00,A,4241.3423,N,08301.9201,W,33.3,357.5,030526,,,A*7C
$GPGGA,125710.00,4241.3423,N,08301.9201,W,1,09,1.2,186.7,M,-34.0,M,,*53
$GPRMC,125720.00,A,4241.4349,N,08301.9293,W,33.5,355.8,030526,,,A*71
$GPGGA,125720.00,4241.4349,N,08301.9293,W,1,08,1.3,200.5,M,-34.0,M,,*58
$GPRMC,125730.00,A,4241.5259,N,08301.9458,W,33.1,352.4,030526,,,A*7F
$GPGGA,125730.00,4241.5259,N,08301.9458,W,1,12,0.9,192.1,M,-34.0,M,,*55
$GPRMC,125740.00,A,4241.6168,N,08301.9573,W,32.9,354.7,030526,,,A*7E
$GPGGA,125740.00,4241.6168,N,08301.9573,W,1,08,1.2,197.8,M,-34.0,M,,*55
$GPRMC,125750.00,A,4241.7107,N,08301.9623,W,33.9,357.8,030526,,,A*7C
$GPGGA,125750.00,4241.7107,N,08301.9623,W,1,09,1.0,201.9,M,-34.0,M,,*54
$GPRMC,125800.00,A,4241.7996,N,08301.9729,W,32.2,355.0,030526,,,A*7D
$GPGGA,125800.00,4241.7996,N,08301.9729,W,1,09,1.2,197.6,M,-34.0,M,,*54
$GPRMC,125810.00,A,4241.8941,N,08301.9858,W,34.2,354.2,030526,,,A*75
$GPGGA,125810.00,4241.8941,N,08301.9858,W,1,11,0.9,204.1,M,-34.0,M,,*54
$GPRMC,125820.00,A,4241.9845,N,08301.9913,W,32.6,357.5,030526,,,A*7A
$GPGGA,125820.00,4241.9845,N,08301.9913,W,1,08,0.9,203.5,M,-34.0,M,,*56
$GPRMC,125830.00,A,4242.0820,N,08302.0027,W,35.2,355.1,030526,,,A*73
$GPGGA,125830.00,4242.0820,N,08302.0027,W,1,10,0.7,204.7,M,-34.0,M,,*58
$GPRMC,125840.00,A,4242.1765,N,08302.0200,W,34.4,352.4,030526,,,A*79
$GPGGA,125840.00,4242.1765,N,08302.0200,W,1,09,1.4,199.5,M,-34.0,M,,*58
$GPRMC,125850.00,A,4242.2643,N,08302.0272,W,31.7,356.5,030526,,,A*78
$GPGGA,125850.00,4242.2643,N,08302.0272,W,1,11,1.3,197.4,M,-34.0,M,,*5B
$GPRMC,125900.00,A,4242.3595,N,08302.0355,W,34.4,356.4,030526,,,A*76
$GPGGA,125900.00,4242.3595,N,08302.0355,W,1,08,0.7,195.0,M,-34.0,M,,*59
$GPRMC,125910.00,A,4242.4494,N,08302.0473,W,32.5,354.5,030526,,,A*77
$GPGGA,125910.00,4242.4494,N,08302.0473,W,1,09,1.3,191.3,M,-34.0,M,,*5F
$GPRMC,125920.00,A,4242.5423,N,08302.0537,W,33.5,357.1,030526,,,A*7E
$GPGGA,125920.00,4242.5423,N,08302.0537,W,1,12,1.1,197.6,M,-34.0,M,,*5B
$GPRMC,125930.00,A,4242.6401,N,08302.0633,W,35.3,355.9,030526,,,A*71
$GPGGA,125930.00,4242.6401,N,08302.0633,W,1,12,1.1,187.3,M,-34.0,M,,*5A
$GPRMC,125940.00,A,4242.7292,N,08302.0746,W,32.3,354.7,030526,,,A*70
$GPGGA,125940.00,4242.7292,N,08302.0746,W,1,12,0.8,190.5,M,-34.0,M,,*5B
$GPRMC,125950.00,A,4242.8256,N,08302.0891,W,34.9,353.7,030526,,,A*78
$GPGGA,125950.00,4242.8256,N,08302.0891,W,1,08,1.1,204.8,M,-34.0,M,,*58
$GPRMC,130000.00,A,4242.9142,N,08302.1004,W,32.0,354.6,030526,,,A*7B
$GPGGA,130000.00,4242.9142,N,08302.1004,W,1,08,1.0,189.7,M,-34.0,M,,*5A
$GPRMC,130010.00,A,4243.0091,N,08302.1075,W,34.2,356.8,030526,,,A*73
$GPGGA,130010.00,4243.0091,N,08302.1075,W,1,11,0.9,185.5,M,-34.0,M,,*54
$GPRMC,130020.00,A,4243.0959,N,08302.1177,W,31.4,355.0,030526,,,A*76
$GPGGA,130020.00,4243.0959,N,08302.1177,W,1,08,0.8,189.5,M,-34.0,M,,*5C
$GPRMC,130030.00,A,4243.1921,N,08302.1294,W,34.8,354.9,030526,,,A*76
$GPGGA,130030.00,4243.1921,N,08302.1294,W,1,09,1.1,188.0,M,-34.0,M,,*50
$GPRMC,130040.00,A,4243.2827,N,08302.1364,W,32.7,356.8,030526,,,A*71
$GPGGA,130040.00,4243.2827,N,08302.1364,W,1,11,0.7,199.4,M,-34.0,M,,*57
$GPRMC,130050.00,A,4243.3751,N,08302.1525,W,33.6,352.7,030526,,,A*77
$GPGGA,130050.00,4243.3751,N,08302.1525,W,1,08,1.1,200.0,M,-34.0,M,,*52
$GPRMC,130100.00,A,4243.4741,N,08302.1601,W,35.7,356.8,030526,,,A*7C
$GPGGA,130100.00,4243.4741,N,08302.1601,W,1,08,0.9,185.9,M,-34.0,M,,*5B
$GPRMC,130110.00,A,4243.5711,N,08302.1293,W,35.9,13.2,030526,,,A*40
$GPGGA,130110.00,4243.5711,N,08302.1293,W,1,11,1.3,194.9,M,-34.0,M,,*52
$GPRMC,130120.00,A,4243.6771,N,08302.0918,W,39.5,14.6,030526,,,A*4C
$GPGGA,130120.00,4243.6771,N,08302.0918,W,1,10,0.7,201.9,M,-34.0,M,,*56
$GPRMC,130130.00,A,4243.7873,N,08302.0606,W,40.5,11.7,030526,,,A*4B
$GPGGA,130130.00,4243.7873,N,08302.0606,W,1,12,1.3,197.8,M,-34.0,M,,*51
$GPRMC,130140.00,A,4243.8836,N,08302.0341,W,35.4,11.5,030526,,,A*45
$GPGGA,130140.00,4243.8836,N,08302.0341,W,1,11,1.1,192.2,M,-34.0,M,,*50
$GPRMC,130150.00,A,4243.9962,N,08301.9958,W,41.8,14.0,030526,,,A*42
$GPGGA,130150.00,4243.9962,N,08301.9958,W,1,10,1.4,196.4,M,-34.0,M,,*5E
$GPRMC,130200.00,A,4244.0931,N,08301.9633,W,36.0,13.8,030526,,,A*49
$GPGGA,130200.00,4244.0931,N,08301.9633,W,1,12,1.3,197.5,M,-34.0,M,,*57
$GPRMC,130210.00,A,4244.1989,N,08301.9325,W,39.0,12.1,030526,,,A*4F
$GPGGA,130210.00,4244.1989,N,08301.9325,W,1,10,1.2,193.6,M,-34.0,M,,*52
$GPRMC,130220.00,A,4244.3051,N,08301.9059,W,38.9,10.4,030526,,,A*45
$GPGGA,130220.00,4244.3051,N,08301.9059,W,1,11,0.7,204.1,M,-34.0,M,,*58
$GPRMC,130230.00,A,4244.4086,N,08301.8698,W,38.5,14.4,030526,,,A*4B
$GPGGA,130230.00,4244.4086,N,08301.8698,W,1,09,0.9,191.3,M,-34.0,M,,*54
$GPRMC,130240.00,A,4244.5180,N,08301.8353,W,40.5,13.0,030526,,,A*44
$GPGGA,130240.00,4244.5180,N,08301.8353,W,1,10,1.0,193.9,M,-34.0,M,,*5F
$GPRMC,130250.00,A,4244.6179,N,08301.8107,W,36.6,10.2,030526,,,A*40
$GPGGA,130250.00,4244.6179,N,08301.8107,W,1,11,1.4,192.0,M,-34.0,M,,*55
$GPRMC,130300.00,A,4244.7236,N,08301.7746,W,39.2,14.1,030526,,,A*4D
$GPGGA,130300.00,4244.7236,N,08301.7746,W,1,08,0.9,204.1,M,-34.0,M,,*5D
$GPRMC,130310.00,A,4244.8280,N,08301.7440,W,38.5,12.1,030526,,,A*4B
$GPGGA,130310.00,4244.8280,N,08301.7440,W,1,11,1.1,191.2,M,-34.0,M,,*56
$GPRMC,130320.00,A,4244.9293,N,08301.7161,W,37.3,11.4,030526,,,A*42
$GPGGA,130320.00,4244.9293,N,08301.7161,W,1,11,0.7,201.3,M,-34.0,M,,*5C
$GPRMC,130330.00,A,4245.0400,N,08301.6803,W,41.0,13.4,030526,,,A*4B
$GPGGA,130330.00,4245.0400,N,08301.6803,W,1,11,1.3,195.3,M,-34.0,M,,*5E
$GPRMC,130340.00,A,4245.1395,N,08301.6450,W,37.0,14.6,030526,,,A*48
$GPGGA,130340.00,4245.1395,N,08301.6450,W,1,10,0.8,191.9,M,-34.0,M,,*5C
$GPRMC,130350.00,A,4245.2426,N,08301.6204,W,37.7,9.9,030526,,,A*76
$GPGGA,130350.00,4245.2426,N,08301.6204,W,1,08,1.3,195.6,M,-34.0,M,,*5E
$GPRMC,130400.00,A,4245.3474,N,08301.5844,W,38.9,14.2,030526,,,A*49
$GPGGA,130400.00,4245.3474,N,08301.5844,W,1,12,1.4,200.8,M,-34.0,M,,*5A
$GPRMC,130410.00,A,4245.4536,N,08301.5530,W,39.2,12.2,030526,,,A*4A
$GPGGA,130410.00,4245.4536,N,08301.5530,W,1,09,1.3,201.7,M,-34.0,M,,*56
$GPRMC,130420.00,A,4245.5568,N,08301.5205,W,38.1,13.0,030526,,,A*43
$GPGGA,130420.00,4245.5568,N,08301.5205,W,1,10,1.3,185.7,M,-34.0,M,,*59
$GPRMC,130430.00,A,4245.6585,N,08301.4921,W,37.4,11.6,030526,,,A*40
$GPGGA,130430.00,4245.6585,N,08301.4921,W,1,08,0.8,198.9,M,-34.0,M,,*55
$GPRMC,130440.00,A,4245.7683,N,08301.4583,W,40.5,12.8,030526,,,A*4B
$GPGGA,130440.00,4245.7683,N,08301.4583,W,1,11,1.0,196.9,M,-34.0,M,,*5D
$GPRMC,130450.00,A,4245.8726,N,08301.4199,W,38.9,15.1,030526,,,A*49
$GPGGA,130450.00,4245.8726,N,08301.4199,W,1,09,1.2,192.7,M,-34.0,M,,*53
$GPRMC,130500.00,A,4245.9777,N,08301.3895,W,38.7,12.0,030526,,,A*42
$GPGGA,130500.00,4245.9777,N,08301.3895,W,1,09,0.7,197.1,M,-34.0,M,,*57
$GPRMC,130510.00,A,4246.0763,N,08301.3627,W,36.2,11.3,030526,,,A*40
$GPGGA,130510.00,4246.0763,N,08301.3627,W,1,10,1.2,194.1,M,-34.0,M,,*51
$GPRMC,130520.00,A,4246.1831,N,08301.3268,W,39.6,13.9,030526,,,A*46
$GPGGA,130520.00,4246.1831,N,08301.3268,W,1,12,1.3,195.9,M,-34.0,M,,*5E
$GPRMC,130530.00,A,4246.2900,N,08301.2982,W,39.2,11.1,030526,,,A*47
$GPGGA,130530.00,4246.2900,N,08301.2982,W,1,10,1.2,194.4,M,-34.0,M,,*5E
$GPRMC,130540.00,A,4246.3967,N,08301.2659,W,39.4,12.5,030526,,,A*48
$GPGGA,130540.00,4246.3967,N,08301.2659,W,1,08,0.7,200.9,M,-34.0,M,,*5E
$GPRMC,130550.00,A,4246.4974,N,08301.2317,W,37.4,14.0,030526,,,A*4E
$GPGGA,130550.00,4246.4974,N,08301.2317,W,1,10,0.8,200.6,M,-34.0,M,,*5C
$GPRMC,130600.00,A,4246.6067,N,08301.2037,W,40.1,10.6,030526,,,A*47
$GPGGA,130600.00,4246.6067,N,08301.2037,W,1,10,1.1,197.2,M,-34.0,M,,*53
$GPRMC,130610.00,A,4246.7089,N,08301.1694,W,37.9,13.9,030526,,,A*4F
$GPGGA,130610.00,4246.7089,N,08301.1694,W,1,12,0.7,186.3,M,-34.0,M,,*5B
$GPRMC,130620.00,A,4246.8111,N,08301.1357,W,37.9,13.6,030526,,,A*46
$GPGGA,130620.00,4246.8111,N,08301.1357,W,1,12,0.8,201.4,M,-34.0,M,,*59
$GPRMC,130630.00,A,4246.9117,N,08301.1056,W,37.1,12.4,030526,,,A*49
$GPGGA,130630.00,4246.9117,N,08301.1056,W,1,08,0.9,186.2,M,-34.0,M,,*5D
$GPRMC,130640.00,A,4247.0196,N,08301.0674,W,40.2,14.5,030526,,,A*4C
$GPGGA,130640.00,4247.0196,N,08301.0674,W,1,08,0.9,195.6,M,-34.0,M,,*5A
$GPRMC,130650.00,A,4247.1207,N,08301.0412,W,37.1,10.8,030526,,,A*4F
$GPGGA,130650.00,4247.1207,N,08301.0412,W,1,09,0.9,194.0,M,-34.0,M,,*55
$GPRMC,130700.00,A,4247.2268,N,08301.0062,W,39.3,13.6,030526,,,A*43
$GPGGA,130700.00,4247.2268,N,08301.0062,W,1,09,1.3,193.9,M,-34.0,M,,*5D
$GPRMC,130710.00,A,4247.3286,N,08300.9787,W,37.4,11.2,030526,,,A*48
$GPGGA,130710.00,4247.3286,N,08300.9787,W,1,12,1.2,192.5,M,-34.0,M,,*5F
$GPRMC,130720.00,A,4247.4332,N,08300.9419,W,38.9,14.5,030526,,,A*46
$GPGGA,130720.00,4247.4332,N,08300.9419,W,1,10,1.1,201.7,M,-34.0,M,,*5B
$GPRMC,130730.00,A,4247.5436,N,08300.9163,W,40.3,9.6,030526,,,A*77
$GPGGA,130730.00,4247.5436,N,08300.9163,W,1,09,1.1,192.3,M,-34.0,M,,*55
$GPRMC,130740.00,A,4247.6451,N,08300.8801,W,37.8,14.7,030526,,,A*48
$GPGGA,130740.00,4247.6451,N,08300.8801,W,1,08,1.1,186.0,M,-34.0,M,,*5B
$GPRMC,130750.00,A,4247.7494,N,08300.8508,W,38.4,11.7,030526,,,A*43
$GPGGA,130750.00,4247.7494,N,08300.8508,W,1,09,1.2,204.3,M,-34.0,M,,*5E
$GPRMC,130800.00,A,4247.8592,N,08300.8115,W,40.9,14.7,030526,,,A*4E
$GPGGA,130800.00,4247.8592,N,08300.8115,W,1,10,1.1,202.3,M,-34.0,M,,*59
$GPRMC,130810.00,A,4247.9578,N,08300.7811,W,36.4,12.7,030526,,,A*42
$GPGGA,130810.00,4247.9578,N,08300.7811,W,1,09,0.9,205.0,M,-34.0,M,,*5A
$GPRMC,130820.00,A,4248.0601,N,08300.7533,W,37.6,11.3,030526,,,A*43
$GPGGA,130820.00,4248.0601,N,08300.7533,W,1,08,0.8,185.9,M,-34.0,M,,*5D
$GPRMC,130830.00,A,4248.1680,N,08300.7200,W,39.9,12.8,030526,,,A*44
$GPGGA,130830.00,4248.1680,N,08300.7200,W,1,09,1.1,203.0,M,-34.0,M,,*5E
